{
"type": "FeatureCollection",
"name": "community_centers",
"features": [
{ "type": "Feature", "properties": { "Name": "Candlelight Community Center", "Address": "1520 Candlelight, Houston, TX 77018", "ZIP": 77018, "Phone": "7136823587", "Email": "candlelight@houstontx.gov", "Type": "HPARD Community Center", "Specification": "Northwest" }, "geometry": { "type": "Point", "coordinates": [ -95.437209035939006, 29.836362018174 ] } },
{ "type": "Feature", "properties": { "Name": "Carverdale Community Center", "Address": "9920 Porto Rico, Houston, TX 77041", "ZIP": 77041, "Phone": "7138956141", "Email": "carverdale@houstontx.gov", "Type": "HPARD Community Center", "Specification": "Northwest" }, "geometry": { "type": "Point", "coordinates": [ -95.539385022380998, 29.847634001564 ] } },
{ "type": "Feature", "properties": { "Name": "Fonde Community Center", "Address": "110 Sabine, Houston, TX 77007", "ZIP": 77007, "Phone": "8323957420", "Email": "fonde@houstontx.gov", "Type": "HPARD Community Center", "Specification": "Northwest" }, "geometry": { "type": "Point", "coordinates": [ -95.374953958846007, 29.76298998099 ] } },
{ "type": "Feature", "properties": { "Name": "Freed Community Center", "Address": "6818 Shadyvilla Ln, Houston, TX 77055", "ZIP": 77055, "Phone": "8323957611", "Email": "freed@houstontx.gov", "Type": "HPARD Community Center", "Specification": "Northwest" }, "geometry": { "type": "Point", "coordinates": [ -95.471341989688, 29.796752999441999 ] } },
{ "type": "Feature", "properties": { "Name": "Highland Community Center", "Address": "3316 De Soto, Houston, TX 77091", "ZIP": 77091, "Phone": "7139569137", "Email": "highland@houstontx.gov", "Type": "HPARD Community Center", "Specification": "Northwest" }, "geometry": { "type": "Point", "coordinates": [ -95.457220997408996, 29.854636997848001 ] } },
{ "type": "Feature", "properties": { "Name": " Inde. Heights Community Center", "Address": "603 East 35th, Houston, TX 77022", "ZIP": 77022, "Phone": "7138670373", "Email": "independenceheights@houstontx.gov", "Type": "HPARD Community Center", "Specification": "Northwest" }, "geometry": { "type": "Point", "coordinates": [ -95.392325162768998, 29.818141882142001 ] } },
{ "type": "Feature", "properties": { "Name": "Lincoln Community Center", "Address": "979 Grenshaw, Houston, TX 77088", "ZIP": 77088, "Phone": "2814451617", "Email": "lincoln@houstontx.gov", "Type": "HPARD Community Center", "Specification": "Northwest" }, "geometry": { "type": "Point", "coordinates": [ -95.424680043761995, 29.880651638888001 ] } },
{ "type": "Feature", "properties": { "Name": "Love Community Center", "Address": "1000 West 12th, Houston, TX 77008", "ZIP": 77008, "Phone": "7138670497", "Email": "love@houstontx.gov", "Type": "HPARD Community Center", "Specification": "Northwest" }, "geometry": { "type": "Point", "coordinates": [ -95.407732983775006, 29.792730985113 ] } },
{ "type": "Feature", "properties": { "Name": "Milroy Community Center", "Address": "1205 Yale, Houston, TX 77008", "ZIP": 77008, "Phone": "7138670397", "Email": "milroy@houstontx.gov", "Type": "HPARD Community Center", "Specification": "Northwest" }, "geometry": { "type": "Point", "coordinates": [ -95.399586025345997, 29.792662002050001 ] } },
{ "type": "Feature", "properties": { "Name": "Montie Beach Community Ctr", "Address": "915 Northwood, Houston, TX 77009", "ZIP": 77009, "Phone": "7138646820", "Email": "montiebeach@houstontx.gov", "Type": "HPARD Community Center", "Specification": "Northwest" }, "geometry": { "type": "Point", "coordinates": [ -95.380548041024994, 29.800061001349 ] } },
{ "type": "Feature", "properties": { "Name": "Proctor Plaza Community Ctr", "Address": "803 West Temple, Houston, TX 77009", "ZIP": 77009, "Phone": "7138626907", "Email": "proctorplaza@houstontx.gov", "Type": "HPARD Community Center", "Specification": "Northwest" }, "geometry": { "type": "Point", "coordinates": [ -95.382551986436994, 29.793276982285999 ] } },
{ "type": "Feature", "properties": { "Name": "Stude Community Center", "Address": "1031 Stude, Houston, TX 77007", "ZIP": 77007, "Phone": "7138670496", "Email": "stude@houstontx.gov", "Type": "HPARD Community Center", "Specification": "Northwest" }, "geometry": { "type": "Point", "coordinates": [ -95.385468972561, 29.778756005586001 ] } },
{ "type": "Feature", "properties": { "Name": "Woodland Community Center", "Address": "212 Parkview, Houston, TX 77009", "ZIP": 77009, "Phone": "7138670401", "Email": "woodland@houstontx.gov", "Type": "HPARD Community Center", "Specification": "Northwest" }, "geometry": { "type": "Point", "coordinates": [ -95.370412978982003, 29.783319993774999 ] } },
{ "type": "Feature", "properties": { "Name": "Clark Community Center", "Address": "9718 Clark, Houston, TX 77076", "ZIP": 77076, "Phone": "7137421497", "Email": "clark@houstontx.gov", "Type": "HPARD Community Center", "Specification": "Northeast" }, "geometry": { "type": "Point", "coordinates": [ -95.374178968078994, 29.848874984239 ] } },
{ "type": "Feature", "properties": { "Name": "Hobart Taylor Community Center", "Address": "8100 Kenton, Houston, TX 77028", "ZIP": 77028, "Phone": "8323957621", "Email": "hobarttaylor@houstontx.gov", "Type": "HPARD Community Center", "Specification": "Northeast" }, "geometry": { "type": "Point", "coordinates": [ -95.277940973303004, 29.815014987167 ] } },
{ "type": "Feature", "properties": { "Name": "Kingwood Community Center", "Address": "4102 Rustic Woods Dr., Houston, TX 77345", "ZIP": 77345, "Phone": "2813482570", "Email": "kingwood@houstontx.gov", "Type": "HPARD Community Center", "Specification": "Northeast" }, "geometry": { "type": "Point", "coordinates": [ -95.185092033439005, 30.054450002524 ] } },
{ "type": "Feature", "properties": { "Name": "Lakewood Community Center", "Address": "8811 Feland, Houston, TX 77028", "ZIP": 77028, "Phone": "7136368217", "Email": "lakewoodpark@houstontx.gov", "Type": "HPARD Community Center", "Specification": "Northeast" }, "geometry": { "type": "Point", "coordinates": [ -95.268256019459997, 29.840542995297 ] } },
{ "type": "Feature", "properties": { "Name": "Melrose Community Center", "Address": "1001 Canino, Houston, TX 77076", "ZIP": 77076, "Phone": "2814470514", "Email": "melrose@houstontx.gov", "Type": "HPARD Community Center", "Specification": "Northeast" }, "geometry": { "type": "Point", "coordinates": [ -95.368627968881995, 29.875981011370001 ] } },
{ "type": "Feature", "properties": { "Name": "Moody Community Center", "Address": "3725 Fulton, Houston, TX 77009", "ZIP": 77009, "Phone": "8323957645", "Email": "prmoody@houstontx.gov", "Type": "HPARD Community Center", "Specification": "Northeast" }, "geometry": { "type": "Point", "coordinates": [ -95.365353997501003, 29.792996020891 ] } },
{ "type": "Feature", "properties": { "Name": "Shady Lane Community Center", "Address": "10220 Shady Lane, Houston, TX 77093", "ZIP": 77093, "Phone": "7137421503", "Email": "shadylane@houstontx.gov", "Type": "HPARD Community Center", "Specification": "Northeast" }, "geometry": { "type": "Point", "coordinates": [ -95.342472994394001, 29.860379020618002 ] } },
{ "type": "Feature", "properties": { "Name": "Tidwell Community Center", "Address": "9720 Spaulding, Houston, TX 77016", "ZIP": 77016, "Phone": "7136368221", "Email": "tidwell@houstontx.gov", "Type": "HPARD Community Center", "Specification": "Northeast" }, "geometry": { "type": "Point", "coordinates": [ -95.304558964121995, 29.849434979190001 ] } },
{ "type": "Feature", "properties": { "Name": "Tuffly Community Center", "Address": "3200 Russell, Houston, TX 77026", "ZIP": 77026, "Phone": "7136742355", "Email": "tuffly@houstontx.gov", "Type": "HPARD Community Center", "Specification": "Northeast" }, "geometry": { "type": "Point", "coordinates": [ -95.331525977390001, 29.790384010314 ] } },
{ "type": "Feature", "properties": { "Name": "Alief Community Center", "Address": "11903 Bellaire Blvd., Houston, TX 77072", "ZIP": 77072, "Phone": "2815648130", "Email": "alief@houstontx.gov", "Type": "HPARD Community Center", "Specification": "Southwest" }, "geometry": { "type": "Point", "coordinates": [ -95.588834982174006, 29.702751003067 ] } },
{ "type": "Feature", "properties": { "Name": "Almeda Community Center", "Address": "14201 Almeda School Rd., Houston, TX 77047", "ZIP": 77047, "Phone": "7134341909", "Email": "almeda@houstontx.gov", "Type": "HPARD Community Center", "Specification": "Southwest" }, "geometry": { "type": "Point", "coordinates": [ -95.417057012868, 29.600711013005 ] } },
{ "type": "Feature", "properties": { "Name": "Burnett Bayland Community Ctr", "Address": "6200 Chimney Rock, Houston, TX 77081", "ZIP": 77081, "Phone": "7136684516", "Email": "burnettbayland@houstontx.gov", "Type": "HPARD Community Center", "Specification": "Southwest" }, "geometry": { "type": "Point", "coordinates": [ -95.477520039062, 29.714216985606999 ] } },
{ "type": "Feature", "properties": { "Name": "Cherryhurst Community Ctr", "Address": "1700 Missouri, Houston, TX 77006", "ZIP": 77006, "Phone": "7132841992", "Email": "cherryhurst@houstontx.gov", "Type": "HPARD Community Center", "Specification": "Southwest" }, "geometry": { "type": "Point", "coordinates": [ -95.398136961925005, 29.744423981636999 ] } },
{ "type": "Feature", "properties": { "Name": "Godwin Community Center", "Address": "5101 Rutherglen, Houston, TX 77096", "ZIP": 77096, "Phone": "7137267114", "Email": "godwin@houstontx.gov", "Type": "HPARD Community Center", "Specification": "Southwest" }, "geometry": { "type": "Point", "coordinates": [ -95.469746997333004, 29.672893993403999 ] } },
{ "type": "Feature", "properties": { "Name": "Hackberry Community Center", "Address": "7777 S. Dairy Ashford, Houston, TX 77072", "ZIP": 77072, "Phone": "8323957616", "Email": "hackberry@houstontx.gov", "Type": "HPARD Community Center", "Specification": "Southwest" }, "geometry": { "type": "Point", "coordinates": [ -95.602976007202003, 29.694526009118999 ] } },
{ "type": "Feature", "properties": { "Name": "J. Robinson, Jr. Community Ctr", "Address": "2020 Hermann Dr., Houston, TX 77004", "ZIP": 77004, "Phone": "8323957626", "Email": "judsonrobinsonjr@houstontx.gov", "Type": "HPARD Community Center", "Specification": "Southwest" }, "geometry": { "type": "Point", "coordinates": [ -95.381986962344001, 29.716523014808001 ] } },
{ "type": "Feature", "properties": { "Name": "Kendall Community Center", "Address": "609 N. Eldridge, Houston, TX 77079", "ZIP": 77079, "Phone": "8323931897", "Email": "askparks@houstontx.gov", "Type": "HPARD Community Center", "Specification": "Southwest" }, "geometry": { "type": "Point", "coordinates": [ -95.620573980556998, 29.773051994747 ] } },
{ "type": "Feature", "properties": { "Name": "Lansdale Community Center", "Address": "8201 Roos, Houston, TX 77036", "ZIP": 77036, "Phone": "7132723668", "Email": "lansdale@houstontx.gov", "Type": "HPARD Community Center", "Specification": "Southwest" }, "geometry": { "type": "Point", "coordinates": [ -95.528112033162003, 29.699439019755999 ] } },
{ "type": "Feature", "properties": { "Name": "Linkwood Community Center", "Address": "3699 Norris, Houston, TX 77025", "ZIP": 77025, "Phone": "7133143107", "Email": "linkwood@houstontx.gov", "Type": "HPARD Community Center", "Specification": "Southwest" }, "geometry": { "type": "Point", "coordinates": [ -95.433676985760002, 29.687382993143 ] } },
{ "type": "Feature", "properties": { "Name": "Marian Community Center", "Address": "11101 South Gessner, Houston, TX 77071", "ZIP": 77071, "Phone": "7137737015", "Email": "marian@houstontx.gov", "Type": "HPARD Community Center", "Specification": "Southwest" }, "geometry": { "type": "Point", "coordinates": [ -95.523775990830998, 29.659777991315 ] } },
{ "type": "Feature", "properties": { "Name": "Platou Community Center", "Address": "11655 Chimney Rock, Houston, TX 77035", "ZIP": 77035, "Phone": "7137267107", "Email": "platou@houstontx.gov", "Type": "HPARD Community Center", "Specification": "Southwest" }, "geometry": { "type": "Point", "coordinates": [ -95.479571006949996, 29.653144008318002 ] } },
{ "type": "Feature", "properties": { "Name": "River Oaks Community Center", "Address": "3600 Locke Lane, Houston, TX 77027", "ZIP": 77027, "Phone": "7136225998", "Email": "riveroaks@houstontx.gov", "Type": "HPARD Community Center", "Specification": "Southwest" }, "geometry": { "type": "Point", "coordinates": [ -95.433320000503997, 29.742611017889999 ] } },
{ "type": "Feature", "properties": { "Name": "Sharpstown Community Ctr", "Address": "6600 Harbor Town, Houston, TX 77036", "ZIP": 77036, "Phone": "8323957605", "Email": "sharpstown@houstontx.gov", "Type": "HPARD Community Center", "Specification": "Southwest" }, "geometry": { "type": "Point", "coordinates": [ -95.527691010165995, 29.713254994579 ] } },
{ "type": "Feature", "properties": { "Name": "Townwood Community Center", "Address": "3403 Simsbrook Dr., Houston, TX 77045", "ZIP": 77045, "Phone": "8323957565", "Email": "townwood@houstontx.gov", "Type": "HPARD Community Center", "Specification": "Southwest" }, "geometry": { "type": "Point", "coordinates": [ -95.429648978369997, 29.621499012979001 ] } },
{ "type": "Feature", "properties": { "Name": "Windsor Village Community Ctr", "Address": "14441 Croquet, Houston, TX 77085", "ZIP": 77085, "Phone": "7137267113", "Email": "windsorvillage@houstontx.gov", "Type": "HPARD Community Center", "Specification": "Southwest" }, "geometry": { "type": "Point", "coordinates": [ -95.473458001145005, 29.617394017809001 ] } },
{ "type": "Feature", "properties": { "Name": "Bessie Swindle Community Ctr", "Address": "11800 Scott, Houston, TX 77047", "ZIP": 77047, "Phone": "7137334581", "Email": "swindle@houstontx.gov", "Type": "HPARD Community Center", "Specification": "Southeast" }, "geometry": { "type": "Point", "coordinates": [ -95.367432960946005, 29.632524987511999 ] } },
{ "type": "Feature", "properties": { "Name": "Beverly Hills Community Center", "Address": "10201 Kingspoint, Houston, TX 77075", "ZIP": 77075, "Phone": "7139489065", "Email": "beverlyhills@houstontx.gov", "Type": "HPARD Community Center", "Specification": "Southeast" }, "geometry": { "type": "Point", "coordinates": [ -95.236536970006995, 29.613661011501001 ] } },
{ "type": "Feature", "properties": { "Name": "Charlton Community Center", "Address": "8200 Park Place Blvd., Houston, TX 77017", "ZIP": 77017, "Phone": "7136453589", "Email": "charlton@houstontx.gov", "Type": "HPARD Community Center", "Specification": "Southeast" }, "geometry": { "type": "Point", "coordinates": [ -95.273902991447997, 29.687696979236001 ] } },
{ "type": "Feature", "properties": { "Name": "Clinton Community Center", "Address": "200 Mississippi, Houston, TX 77029", "ZIP": 77029, "Phone": "7136730955", "Email": "clinton@houstontx.gov", "Type": "HPARD Community Center", "Specification": "Southeast" }, "geometry": { "type": "Point", "coordinates": [ -95.261908990918997, 29.743601004474002 ] } },
{ "type": "Feature", "properties": { "Name": "Crestmont Community Center", "Address": "5200 Selinsky Rd., Houston, TX 77048", "ZIP": 77048, "Phone": "7137332236", "Email": "crestmont@houstontx.gov", "Type": "HPARD Community Center", "Specification": "Southeast" }, "geometry": { "type": "Point", "coordinates": [ -95.345368019931996, 29.636091990227001 ] } },
{ "type": "Feature", "properties": { "Name": "DeZavala Community Center", "Address": "907  76th St., Houston, TX 77012", "ZIP": 77012, "Phone": "7139235163", "Email": "dezavala@houstontx.gov", "Type": "HPARD Community Center", "Specification": "Southeast" }, "geometry": { "type": "Point", "coordinates": [ -95.289518979978993, 29.738232018304 ] } },
{ "type": "Feature", "properties": { "Name": "Eastwood Community Center", "Address": "5020 Harrisburg, Houston, TX 77011", "ZIP": 77011, "Phone": "7139284801", "Email": "eastwood@houstontx.gov", "Type": "HPARD Community Center", "Specification": "Southeast" }, "geometry": { "type": "Point", "coordinates": [ -95.325654035119996, 29.741965988531 ] } },
{ "type": "Feature", "properties": { "Name": "Edgewood Community Center", "Address": "5803 Bellfort, Houston, TX 77033", "ZIP": 77033, "Phone": "7137348434", "Email": "edgewood@houstontx.gov", "Type": "HPARD Community Center", "Specification": "Southeast" }, "geometry": { "type": "Point", "coordinates": [ -95.331710965992997, 29.666841002026 ] } },
{ "type": "Feature", "properties": { "Name": "Emancipation Community Ctr", "Address": "3018 Emancipation Ave., Houston, TX 77004", "ZIP": 77004, "Phone": "8323957400", "Email": "emancipation@houstontx.gov", "Type": "HPARD Community Center", "Specification": "Southeast" }, "geometry": { "type": "Point", "coordinates": [ -95.364915959241003, 29.735744017984999 ] } },
{ "type": "Feature", "properties": { "Name": "Finnigan Community Center", "Address": "4900 Providence, Houston, TX 77020", "ZIP": 77020, "Phone": "7136787385", "Email": "finnigan@houstontx.gov", "Type": "HPARD Community Center", "Specification": "Southeast" }, "geometry": { "type": "Point", "coordinates": [ -95.319631972964999, 29.769632010613002 ] } },
{ "type": "Feature", "properties": { "Name": "Garden Villas Community Ctr", "Address": "6720 S. Haywood, Houston, TX 77061", "ZIP": 77061, "Phone": "7138475168", "Email": "gardenvillas@houstontx.gov", "Type": "HPARD Community Center", "Specification": "Southeast" }, "geometry": { "type": "Point", "coordinates": [ -95.295304001912001, 29.664348014474001 ] } },
{ "type": "Feature", "properties": { "Name": "Hartman Community Center", "Address": "9311 E. Ave. P, Houston, TX 77012", "ZIP": 77012, "Phone": "7139284803", "Email": "hartman@houstontx.gov", "Type": "HPARD Community Center", "Specification": "Southeast" }, "geometry": { "type": "Point", "coordinates": [ -95.261683014808995, 29.720918987748 ] } },
{ "type": "Feature", "properties": { "Name": "Ingrando Community Center", "Address": "7302 Keller, Houston, TX 77012", "ZIP": 77012, "Phone": "7136434764", "Email": "ingrando@houstontx.gov", "Type": "HPARD Community Center", "Specification": "Southeast" }, "geometry": { "type": "Point", "coordinates": [ -95.287617964337997, 29.706039014135001 ] } },
{ "type": "Feature", "properties": { "Name": "J. Robinson, Sr. Community Ctr", "Address": "1422 Ledwicke, Houston, TX 77029", "ZIP": 77029, "Phone": "8323957320", "Email": "judsonrobinsonsr@houstontx.gov", "Type": "HPARD Community Center", "Specification": "Southeast" }, "geometry": { "type": "Point", "coordinates": [ -95.270719963717994, 29.763902015873999 ] } },
{ "type": "Feature", "properties": { "Name": "MacGregor Park Fitness Center", "Address": "5225 Calhoun, Houston, TX 77021", "ZIP": 77021, "Phone": "7137478650", "Email": "macgregor@houstontx.gov", "Type": "HPARD Community Center", "Specification": "Southeast" }, "geometry": { "type": "Point", "coordinates": [ -95.340550018166994, 29.709560000202 ] } },
{ "type": "Feature", "properties": { "Name": "Mason Community Center", "Address": "541 South 75th St, Houston, TX 77023", "ZIP": 77023, "Phone": "7139287055", "Email": "mason@houstontx.gov", "Type": "HPARD Community Center", "Specification": "Southeast" }, "geometry": { "type": "Point", "coordinates": [ -95.293449002919999, 29.725240990391999 ] } },
{ "type": "Feature", "properties": { "Name": "Meadowcreek Community Ctr", "Address": "5333 Berry Creek, Houston, TX 77017", "ZIP": 77017, "Phone": "7139469020", "Email": "meadowcreek@houstontx.gov", "Type": "HPARD Community Center", "Specification": "Southeast" }, "geometry": { "type": "Point", "coordinates": [ -95.242501029392002, 29.680671980456001 ] } },
{ "type": "Feature", "properties": { "Name": "Sagemont Community Center", "Address": "11507 Hughes, Houston, TX 77089", "ZIP": 77089, "Phone": "2819222343", "Email": "sagemont@houstontx.gov", "Type": "HPARD Community Center", "Specification": "Southeast" }, "geometry": { "type": "Point", "coordinates": [ -95.217048961304997, 29.599911002256 ] } },
{ "type": "Feature", "properties": { "Name": "Selena Q. Perez Community Ctr(Denver Harbor)", "Address": "6402 Market, Houston, TX 77020", "ZIP": 77020, "Phone": "8323957640", "Email": "denverharbor@houstontx.gov", "Type": "HPARD Community Center", "Specification": "Southeast" }, "geometry": { "type": "Point", "coordinates": [ -95.305772998978, 29.771862015953001 ] } },
{ "type": "Feature", "properties": { "Name": "Settegast Community Center", "Address": "3000 Garrow, Houston, TX 77003", "ZIP": 77003, "Phone": "7132382200", "Email": "settegast@houstontx.gov", "Type": "HPARD Community Center", "Specification": "Southeast" }, "geometry": { "type": "Point", "coordinates": [ -95.343920559698006, 29.752050094192999 ] } },
{ "type": "Feature", "properties": { "Name": "Sunnyside Community Center", "Address": "3502 Bellfort, Houston, TX 77051", "ZIP": 77051, "Phone": "8323957586", "Email": "sunnyside@houstontx.gov", "Type": "HPARD Community Center", "Specification": "Southeast" }, "geometry": { "type": "Point", "coordinates": [ -95.37085202307, 29.669051980446 ] } },
{ "type": "Feature", "properties": { "Name": "Swiney Community Center", "Address": "2812 Cline, Houston, TX 77020", "ZIP": 77020, "Phone": "7132382197", "Email": "swiney@houstontx.gov", "Type": "HPARD Community Center", "Specification": "Southeast" }, "geometry": { "type": "Point", "coordinates": [ -95.340948833301994, 29.766571892093001 ] } },
{ "type": "Feature", "properties": { "Name": "Acres Homes Multi-Service Center", "Address": "6719 W. Montgomery Rd., Houston, TX 77091", "ZIP": 77091, "Phone": "8323934145", "Email": "UNKNOWN", "Type": "Multi-Service Center", "Specification": "UNKNOWN" }, "geometry": { "type": "Point", "coordinates": [ -95.421575026317001, 29.857609011167 ] } },
{ "type": "Feature", "properties": { "Name": "Alief Neighborhood Center", "Address": "11903 Bellaire Blvd., Houston, TX 77072", "ZIP": 77072, "Phone": "8323936668", "Email": "UNKNOWN", "Type": "Multi-Service Center", "Specification": "UNKNOWN" }, "geometry": { "type": "Point", "coordinates": [ -95.588834982174006, 29.702751003067 ] } },
{ "type": "Feature", "properties": { "Name": "Denver Harbor Multi-Service Center", "Address": "6402 Market St., Houston, TX 77007", "ZIP": 77007, "Phone": "8323950895", "Email": "UNKNOWN", "Type": "Multi-Service Center", "Specification": "UNKNOWN" }, "geometry": { "type": "Point", "coordinates": [ -95.305772998978, 29.771862015953001 ] } },
{ "type": "Feature", "properties": { "Name": "Fifth Ward Multi-Service Center", "Address": "4014 Market St., Houston, TX 77007", "ZIP": 77007, "Phone": "8323933800", "Email": "UNKNOWN", "Type": "Multi-Service Center", "Specification": "UNKNOWN" }, "geometry": { "type": "Point", "coordinates": [ -95.330602962211998, 29.772150982065 ] } },
{ "type": "Feature", "properties": { "Name": "Hiram Clarke Multi-Service Center", "Address": "3810 W. Fuqua St., Houston, TX 77045", "ZIP": 77045, "Phone": "8323934240", "Email": "UNKNOWN", "Type": "Multi-Service Center", "Specification": "UNKNOWN" }, "geometry": { "type": "Point", "coordinates": [ -95.433609008524996, 29.614149005904 ] } },
{ "type": "Feature", "properties": { "Name": "Kashmere Multi-Service Center", "Address": "4802 Lockwood Dr., Houston, TX 77026", "ZIP": 77026, "Phone": "8323935503", "Email": "UNKNOWN", "Type": "Multi-Service Center", "Specification": "UNKNOWN" }, "geometry": { "type": "Point", "coordinates": [ -95.316554976309007, 29.804165996519998 ] } },
{ "type": "Feature", "properties": { "Name": "Magnolia Multi-Service Center", "Address": "7037 Capitol St., Houston, TX 77011", "ZIP": 77011, "Phone": "8323953380", "Email": "UNKNOWN", "Type": "Multi-Service Center", "Specification": "UNKNOWN" }, "geometry": { "type": "Point", "coordinates": [ -95.301045018853998, 29.734595990616 ] } },
{ "type": "Feature", "properties": { "Name": "Northeast Multi-Service Center", "Address": "9720 Spaulding St., Houston, TX 77016", "ZIP": 77016, "Phone": "8323950472", "Email": "UNKNOWN", "Type": "Multi-Service Center", "Specification": "UNKNOWN" }, "geometry": { "type": "Point", "coordinates": [ -95.304558964121995, 29.849434979190001 ] } },
{ "type": "Feature", "properties": { "Name": "Southwest Multi-Service Center", "Address": "6400 High Star Dr., Houston, TX 77074", "ZIP": 77074, "Phone": "8323959900", "Email": "UNKNOWN", "Type": "Multi-Service Center", "Specification": "UNKNOWN" }, "geometry": { "type": "Point", "coordinates": [ -95.496206989276999, 29.711002986743999 ] } },
{ "type": "Feature", "properties": { "Name": "Sunnyside Health and Multi-Service Center", "Address": "4410 Reed Road, Houston, TX 77051", "ZIP": 77051, "Phone": "8323950069", "Email": "UNKNOWN", "Type": "Multi-Service Center", "Specification": "UNKNOWN" }, "geometry": { "type": "Point", "coordinates": [ -95.361269998997997, 29.658014019791999 ] } },
{ "type": "Feature", "properties": { "Name": "Third Ward Multi-Service Center", "Address": "3611 Ennis St., Houston, TX 77004", "ZIP": 77004, "Phone": "8323934051", "Email": "UNKNOWN", "Type": "Multi-Service Center", "Specification": "UNKNOWN" }, "geometry": { "type": "Point", "coordinates": [ -95.361425986216005, 29.728267988995 ] } },
{ "type": "Feature", "properties": { "Name": "West End Multi-Service Center", "Address": "170 Heights Blvd., Houston, TX 77007", "ZIP": 77007, "Phone": "8323935950", "Email": "UNKNOWN", "Type": "Multi-Service Center", "Specification": "UNKNOWN" }, "geometry": { "type": "Point", "coordinates": [ -95.396960980909, 29.772526994242 ] } },
{ "type": "Feature", "properties": { "Name": "Alexander Deussen Senior Center", "Address": "12303 Sonnier St Houston, TX 77044", "ZIP": 77044, "Phone": "8329272100", "Email": "UNKNOWN", "Type": "Harris County Community Center", "Specification": "Precinct 1" }, "geometry": { "type": "Point", "coordinates": [ -95.155774349777005, 29.901891110638001 ] } },
{ "type": "Feature", "properties": { "Name": "Barbara Jordan Community Center", "Address": "6400 Winfield Rd Houston, TX 77050", "ZIP": 77050, "Phone": "2815916951", "Email": "UNKNOWN", "Type": "Harris County Community Center", "Specification": "Precinct 1" }, "geometry": { "type": "Point", "coordinates": [ -95.293677642755995, 29.899303861526001 ] } },
{ "type": "Feature", "properties": { "Name": "Cavalcade Community Center", "Address": "3815 Cavalcade Houston, TX 77026", "ZIP": 77026, "Phone": "7136750004", "Email": "UNKNOWN", "Type": "Harris County Community Center", "Specification": "Precinct 1" }, "geometry": { "type": "Point", "coordinates": [ -95.332554017814005, 29.800411993545001 ] } },
{ "type": "Feature", "properties": { "Name": "Christia Adair Community Center", "Address": "15107 Cullen Blvd Houston, TX 77047", "ZIP": 77047, "Phone": "UNKNOWN", "Email": "UNKNOWN", "Type": "Harris County Community Center", "Specification": "Precinct 1" }, "geometry": { "type": "Point", "coordinates": [ -95.350087031418994, 29.589208988282 ] } },
{ "type": "Feature", "properties": { "Name": "El Franco Lee Community Center", "Address": "9500 Hall Rd, Houston, TX 77089", "ZIP": 77089, "Phone": "8329272190", "Email": "UNKNOWN", "Type": "Harris County Community Center", "Specification": "Precinct 1" }, "geometry": { "type": "Point", "coordinates": [ -95.251625988284005, 29.598362990468001 ] } },
{ "type": "Feature", "properties": { "Name": "Finnigan Community Center", "Address": "4900 Providence St Houston, TX 77020", "ZIP": 77020, "Phone": "3462863201", "Email": "UNKNOWN", "Type": "Harris County Community Center", "Specification": "Precinct 1" }, "geometry": { "type": "Point", "coordinates": [ -95.319631972964999, 29.769632010613002 ] } },
{ "type": "Feature", "properties": { "Name": "Julia C. Hester House", "Address": "2020 Solo St, Houston, TX 77020", "ZIP": 77020, "Phone": "7132741394", "Email": "UNKNOWN", "Type": "Harris County Community Center", "Specification": "Precinct 1" }, "geometry": { "type": "Point", "coordinates": [ -95.320252988171006, 29.779165000551998 ] } },
{ "type": "Feature", "properties": { "Name": "Lincoln Park Community Center", "Address": "979 Grenshaw St, Houston, TX 77088", "ZIP": 77088, "Phone": "3462863270", "Email": "UNKNOWN", "Type": "Harris County Community Center", "Specification": "Precinct 1" }, "geometry": { "type": "Point", "coordinates": [ -95.424680043761995, 29.880651638888001 ] } },
{ "type": "Feature", "properties": { "Name": "Tom Bass Community Center", "Address": "15108 Cullen Blvd, Houston, TX 77047", "ZIP": 77047, "Phone": "3462863286", "Email": "UNKNOWN", "Type": "Harris County Community Center", "Specification": "Precinct 1" }, "geometry": { "type": "Point", "coordinates": [ -95.352194311296998, 29.589067232093999 ] } },
{ "type": "Feature", "properties": { "Name": "YET Center", "Address": "4900 Providence St, Houston, TX 77020", "ZIP": 77020, "Phone": "3462863211", "Email": "UNKNOWN", "Type": "Harris County Community Center", "Specification": "Precinct 1" }, "geometry": { "type": "Point", "coordinates": [ -95.319631972964999, 29.769632010613002 ] } },
{ "type": "Feature", "properties": { "Name": "Bay Area Community Center", "Address": "5002 E NASA Parkway, Seabrook, TX, 77586", "ZIP": 77586, "Phone": "2813262955", "Email": "UNKNOWN", "Type": "Harris County Community Center", "Specification": "Precinct 2" }, "geometry": { "type": "Point", "coordinates": [ -95.068939204105007, 29.565121558714001 ] } },
{ "type": "Feature", "properties": { "Name": "Deputy Darren Almendarez Community Center", "Address": "10918 1/2 Bentley St, Houston, TX 77093", "ZIP": 77093, "Phone": "2814427950", "Email": "UNKNOWN", "Type": "Harris County Community Center", "Specification": "Precinct 2" }, "geometry": { "type": "Point", "coordinates": [ -95.335156012016995, 29.874297003203001 ] } },
{ "type": "Feature", "properties": { "Name": "East Harris County Activity Center", "Address": "7340 Spencer Hwy, Pasadena, TX, 77505", "ZIP": 77505, "Phone": "2814794232", "Email": "UNKNOWN", "Type": "Harris County Community Center", "Specification": "Precinct 2" }, "geometry": { "type": "Point", "coordinates": [ -95.125723013246997, 29.660561992628999 ] } },
{ "type": "Feature", "properties": { "Name": "Hardy Community Center ", "Address": "11901 W Hardy Rd, Houston, TX 77076", "ZIP": 77076, "Phone": "7132742222", "Email": "UNKNOWN", "Type": "Harris County Community Center", "Specification": "Precinct 2" }, "geometry": { "type": "Point", "coordinates": [ -95.367118974853, 29.873921996855 ] } },
{ "type": "Feature", "properties": { "Name": "J.D. Walker Community Center", "Address": "7613 Wade Rd, Baytown, TX 77521", "ZIP": 77521, "Phone": "2814263551", "Email": "UNKNOWN", "Type": "Harris County Community Center", "Specification": "Precinct 2" }, "geometry": { "type": "Point", "coordinates": [ -95.016882361791005, 29.806852940150002 ] } },
{ "type": "Feature", "properties": { "Name": "Leon Grayson / Baldree Community Center", "Address": "13828 Corpus Christi St, Houston, TX 77015", "ZIP": 77015, "Phone": "7134553660", "Email": "UNKNOWN", "Type": "Harris County Community Center", "Specification": "Precinct 2" }, "geometry": { "type": "Point", "coordinates": [ -95.180040008937993, 29.782295012744999 ] } },
{ "type": "Feature", "properties": { "Name": "Leonel J. Castillo Community Center", "Address": "2101 South St, Houston, TX 77009", "ZIP": 77009, "Phone": "7133802260", "Email": "UNKNOWN", "Type": "Harris County Community Center", "Specification": "Precinct 2" }, "geometry": { "type": "Point", "coordinates": [ -95.367056026759997, 29.778248984263001 ] } },
{ "type": "Feature", "properties": { "Name": "Mangum-Howell Community Center & Doss Activity Center ", "Address": "Doss Park Rd, Houston, TX 77038", "ZIP": 77038, "Phone": "7132742222", "Email": "UNKNOWN", "Type": "Harris County Community Center", "Specification": "Precinct 2" }, "geometry": { "type": "Point", "coordinates": [ -95.455138771153997, 29.922203907158 ] } },
{ "type": "Feature", "properties": { "Name": "Martin L. Flukinger Community Center", "Address": "16003 Lorenzo St, Channelview, TX 77530", "ZIP": 77530, "Phone": "7132742132", "Email": "UNKNOWN", "Type": "Harris County Community Center", "Specification": "Precinct 2" }, "geometry": { "type": "Point", "coordinates": [ -95.120620026775001, 29.775514011167001 ] } },
{ "type": "Feature", "properties": { "Name": "Pep Mueller Community Center", "Address": "14750 Henry Rd, Houston, TX 77060", "ZIP": 77060, "Phone": "7132747275", "Email": "UNKNOWN", "Type": "Harris County Community Center", "Specification": "Precinct 2" }, "geometry": { "type": "Point", "coordinates": [ -95.380551980519996, 29.914143020247 ] } },
{ "type": "Feature", "properties": { "Name": "Barrett Station/Riley Chambers Community Center", "Address": "808 ½ Magnolia Ave., Crosby, Texas 77532", "ZIP": 77532, "Phone": "7132742040", "Email": "barrettstationcc@pct3.hctx.net", "Type": "Harris County Community Center", "Specification": "Precinct 3" }, "geometry": { "type": "Point", "coordinates": [ -95.075108974740999, 29.866561009485999 ] } },
{ "type": "Feature", "properties": { "Name": "Big Stone Lodge", "Address": "709 Riley Fuzzel Road, Spring, Texas 77373", "ZIP": 77373, "Phone": "2813501029", "Email": "bigstonelodgecc@pct3.hctx.net", "Type": "Harris County Community Center", "Specification": "Precinct 3" }, "geometry": { "type": "Point", "coordinates": [ -95.404332026562003, 30.090739997145999 ] } },
{ "type": "Feature", "properties": { "Name": "Crosby Community Center", "Address": "409 Hare Rd, Crosby, TX, 77532", "ZIP": 77532, "Phone": "8329277730", "Email": "crosbycc@pct3.hctx.net", "Type": "Harris County Community Center", "Specification": "Precinct 3" }, "geometry": { "type": "Point", "coordinates": [ -95.065177006211997, 29.920793012678999 ] } },
{ "type": "Feature", "properties": { "Name": "George H.W. Bush Community Center", "Address": "6827 Cypresswood Dr., Spring, TX 77379", "ZIP": 77379, "Phone": "7132741080", "Email": "GeorgeBushcc@pct3.hctx.net", "Type": "Harris County Community Center", "Specification": "Precinct 3" }, "geometry": { "type": "Point", "coordinates": [ -95.511451431622007, 30.012433589398 ] } },
{ "type": "Feature", "properties": { "Name": "Juergen's Hall Community Center", "Address": "26026 Hempstead Road, Cypress, Texas 77429", "ZIP": 77429, "Phone": "7132743188", "Email": "juergenshallcc@pct3.hctx.net", "Type": "Harris County Community Center", "Specification": "Precinct 3" }, "geometry": { "type": "Point", "coordinates": [ -95.698453008987997, 29.971660017023002 ] } },
{ "type": "Feature", "properties": { "Name": "May Community Center", "Address": "2100 Wolf Rd, Huffman, TX 77336", "ZIP": 77336, "Phone": "7132742434", "Email": "veramaycc@pct3.hctx.net", "Type": "Harris County Community Center", "Specification": "Precinct 3" }, "geometry": { "type": "Point", "coordinates": [ -95.071953020557999, 30.052283993014999 ] } },
{ "type": "Feature", "properties": { "Name": "San Jacinto Community Center", "Address": "604 Highland Woods Dr, Highlands, TX 77562", "ZIP": 77562, "Phone": "7132742860", "Email": "sanjacintocc@pct3.hctx.net", "Type": "Harris County Community Center", "Specification": "Precinct 3" }, "geometry": { "type": "Point", "coordinates": [ -95.064740335102002, 29.819210370118999 ] } },
{ "type": "Feature", "properties": { "Name": "Trini Mendenhall Community Center", "Address": "1414 Wirt Road, Houston, Texas 77055", "ZIP": 77055, "Phone": "7132743200", "Email": "mendenhallcc@pct3.hctx.net", "Type": "Harris County Community Center", "Specification": "Precinct 3" }, "geometry": { "type": "Point", "coordinates": [ -95.484135037048006, 29.795769005918999 ] } },
{ "type": "Feature", "properties": { "Name": "Bayland Community Center", "Address": "6400 Bissonnet Street, Houston, TX 77074", "ZIP": 77074, "Phone": "7132743240", "Email": "baylandcc@hcp4.net", "Type": "Harris County Community Center", "Specification": "Precinct 4" }, "geometry": { "type": "Point", "coordinates": [ -95.496468001742002, 29.694996988259 ] } },
{ "type": "Feature", "properties": { "Name": "Burnett Bayland Community Center", "Address": "6026 Chimney Rock Rd, Houston, TX 77081", "ZIP": 77081, "Phone": "7132744774", "Email": "burnettbaylandcc@hcp4.net", "Type": "Harris County Community Center", "Specification": "Precinct 4" }, "geometry": { "type": "Point", "coordinates": [ -95.476549934236004, 29.715813538527001 ] } },
{ "type": "Feature", "properties": { "Name": "Freed Community Center", "Address": "6818 Shadyvilla Ln, Houston, TX 77055", "ZIP": 77055, "Phone": "7132744787", "Email": "freedcc@hcp4.net", "Type": "Harris County Community Center", "Specification": "Precinct 4" }, "geometry": { "type": "Point", "coordinates": [ -95.471341989688, 29.796752999441999 ] } },
{ "type": "Feature", "properties": { "Name": "Hockley Community Center", "Address": "28515 Old Washington Road, Hockley, TX 77447", "ZIP": 77447, "Phone": "7132743220", "Email": "hockleycc@hcp4.net", "Type": "Harris County Community Center", "Specification": "Precinct 4" }, "geometry": { "type": "Point", "coordinates": [ -95.868310013724994, 30.034058005565001 ] } },
{ "type": "Feature", "properties": { "Name": "Richard & Meg Weekley Community Center", "Address": "8440 Greenhouse Road, Cypress, TX 77433", "ZIP": 77433, "Phone": "7132743161", "Email": "weekleycc@hcp4.net", "Type": "Harris County Community Center", "Specification": "Precinct 4" }, "geometry": { "type": "Point", "coordinates": [ -95.705368224861999, 29.898979055681998 ] } },
{ "type": "Feature", "properties": { "Name": "Steve Radack Community Center", "Address": "18650 Clay Road, Houston, TX 77084", "ZIP": 77084, "Phone": "8329273000", "Email": "radackcc@hcp4.netv", "Type": "Harris County Community Center", "Specification": "Precinct 4" }, "geometry": { "type": "Point", "coordinates": [ -95.690695968968001, 29.831192470407 ] } },
{ "type": "Feature", "properties": { "Name": "Tracy Gee Community Center", "Address": "3599 Westcenter Drive, Houston, TX 77042", "ZIP": 77042, "Phone": "8329271880", "Email": "tracygeecc@hcp4.net", "Type": "Harris County Community Center", "Specification": "Precinct 4" }, "geometry": { "type": "Point", "coordinates": [ -95.553499979690002, 29.726067990868 ] } },
{ "type": "Feature", "properties": { "Name": "Jim & JoAnn Fonteno Senior Education Center", "Address": "6600 Bissonnet Street, Houston, TX 77074", "ZIP": 77074, "Phone": "7132743305", "Email": "fontenosec@hcp4.net", "Type": "Harris County Community Center", "Specification": "Precinct 4" }, "geometry": { "type": "Point", "coordinates": [ -95.500475976383996, 29.691321984721 ] } },
{ "type": "Feature", "properties": { "Name": "Thomas A. Glazier Senior Education Center", "Address": "16600 Pine Forest Lane, Houston, TX 77084", "ZIP": 77084, "Phone": "7132743250", "Email": "glaziersec@hcp4.net", "Type": "Harris County Community Center", "Specification": "Precinct 4" }, "geometry": { "type": "Point", "coordinates": [ -95.653633122282002, 29.83062036626 ] } },
{ "type": "Feature", "properties": { "Name": "Mary Jo Peckham Aquatic & Fitness Center", "Address": "5597 Gardenia Lane, Katy, TX 77493", "ZIP": 77493, "Phone": "8329278890", "Email": "peckhamafc@hcp4.net", "Type": "Harris County Community Center", "Specification": "Precinct 4" }, "geometry": { "type": "Point", "coordinates": [ -95.820411963305006, 29.803691999895001 ] } },
{ "type": "Feature", "properties": { "Name": "John Paul Landing Environmental Education Center", "Address": "9950 Katy Hockley Rd, Cypress, TX 77433", "ZIP": 77433, "Phone": "UNKNOWN", "Email": "johnpaullanding@hcp4.net", "Type": "Harris County Community Center", "Specification": "Precinct 4" }, "geometry": { "type": "Point", "coordinates": [ -95.807573680546994, 29.911355876203 ] } },
{ "type": "Feature", "properties": { "Name": "Kleb Woods Nature Center", "Address": "20303 Draper Rd, Tomball, TX 77377", "ZIP": 77377, "Phone": "8329274420", "Email": "klebwoods@hcp4.net", "Type": "Harris County Community Center", "Specification": "Precinct 4" }, "geometry": { "type": "Point", "coordinates": [ -95.735741360431007, 30.072456386744999 ] } }
]
}
